[
  {
    "city": "Ciudad de Mexico",
    "lat": "19.390519",
    "lng": "-99.4238064"
  },
  {
    "city": "Cancun",
    "lat": "21.1214886",
    "lng": "-86.9192733"
  },
  {
    "city": "Chichén-Itzá",
    "lat": "20.6787867",
    "lng": "-88.5706656"
  },
  {
    "city": "Playa del carmen",
    "lat": "20.6538687",
    "lng": "-87.1067159"
  },
  {
    "city": "Cabo san lucas",
    "lat": "22.8962649",
    "lng": "-109.9505077"
  },
  {
    "city": "Tulum",
    "lat": "19.7242834",
    "lng": "-87.6788368"
  },
  {
    "city": "Puerto vallarta",
    "lat": "20.6409485",
    "lng": "-105.2595437"
  },
  {
    "city": "Cozumel",
    "lat": "20.2203773",
    "lng": "-87.8405077"
  },
  {
    "city": "isla mujeres",
    "lat": "21.2439809",
    "lng": "-86.798255"
  },
  {
    "city": "Mérida",
    "lat": "20.9802115",
    "lng": "-89.7029582"
  },
  {
    "city": "Oaxaca",
    "lat": "17.0813771",
    "lng": "-96.770751"
  },
  {
    "city": "Teotihuacan",
    "lat": "19.6881128",
    "lng": "-98.8846183"
  },
  {
    "city": "Acapulco",
    "lat": "16.8356128",
    "lng": "-99.9323486"
  },
  {
    "city": "San miguel de allende",
    "lat": "20.9150924",
    "lng": "-100.762212"
  },
  {
    "city": "Guanajuato",
    "lat": "21.025147",
    "lng": "-101.2753897"
  },
  {
    "city": "Guadalajara",
    "lat": "20.6738686",
    "lng": "-103.3704326"
  },
  {
    "city": "Ilha holbox",
    "lat": "21.5267145",
    "lng": "-87.3002876"
  },
  {
    "city": "Uxmal",
    "lat": "20.3588096",
    "lng": "-89.7794153"
  },
  {
    "city": "Akumal",
    "lat": "20.3965481",
    "lng": "-87.3144543"
  },
  {
    "city": "Mazatlán",
    "lat": "23.2468188",
    "lng": "-106.4572966"
  },
  {
    "city": "San miguel de cozumel",
    "lat": "20.512432",
    "lng": "-86.9713823"
  },
  {
    "city": "Palenque",
    "lat": "17.5253197",
    "lng": "-92.0010679"
  },
  {
    "city": "Puebla",
    "lat": "19.0401963",
    "lng": "-98.2630051"
  },
  {
    "city": "San José del Cabo",
    "lat": "23.0721676",
    "lng": "-109.7456884"
  },
  {
    "city": "Puerto Escondido",
    "lat": "15.8749498",
    "lng": "-97.0857931"
  },
  {
    "city": "Ensenada",
    "lat": "31.8572722",
    "lng": "-116.6184842"
  },
  {
    "city": "Tijuana",
    "lat": "32.4968847",
    "lng": "-117.0178467"
  },
  {
    "city": "Valladolid",
    "lat": "20.6850645",
    "lng": "-88.1979154"
  },
  {
    "city": "La paz",
    "lat": "24.1165112",
    "lng": "-110.3377464"
  },
  {
    "city": "Puerto morelos",
    "lat": "20.8417787",
    "lng": "-86.8941327"
  },
  {
    "city": "Bacalar",
    "lat": "18.669693",
    "lng": "-88.41682"
  },
  {
    "city": "Taxco",
    "lat": "18.5560528",
    "lng": "-99.6264337"
  },
  {
    "city": "Sian Kaan",
    "lat": "19.4980309",
    "lng": "-87.7245672"
  },
  {
    "city": "Zihuatanejo",
    "lat": "17.6406154",
    "lng": "-101.5601368"
  },
  {
    "city": "Ixtapa",
    "lat": "17.6568799",
    "lng": "-101.6346536"
  },
  {
    "city": "Campeche",
    "lat": "19.8306489",
    "lng": "-90.5798364"
  },
  {
    "city": "Loreto",
    "lat": "26.0151392",
    "lng": "-111.3712463"
  },
  {
    "city": "Chetumal",
    "lat": "18.5221998",
    "lng": "-88.3222882"
  },
  {
    "city": "Cuernavaca",
    "lat": "18.9319595",
    "lng": "-99.2755844"
  },
  {
    "city": "Sayulita",
    "lat": "20.8697849",
    "lng": "-105.4431475"
  },
  {
    "city": "Todos Santos",
    "lat": "23.4559302",
    "lng": "-110.252857"
  },
  {
    "city": "Vera Cruz",
    "lat": "19.1788445",
    "lng": "-96.2113356"
  },
  {
    "city": "Queretaro",
    "lat": "20.5744479",
    "lng": "-100.5242679"
  },
  {
    "city": "Desfiladeiro Sumidero",
    "lat": "16.8119427",
    "lng": "-93.166068"
  },
  {
    "city": "Rosarito",
    "lat": "32.3638506",
    "lng": "-117.0583679"
  },
  {
    "city": "Cholula",
    "lat": "19.0642662",
    "lng": "-98.352163"
  },
  {
    "city": "Punta Mita",
    "lat": "20.7809168",
    "lng": "-105.536033"
  },
  {
    "city": "Monterrey",
    "lat": "25.6490376",
    "lng": "-100.44318"
  }
]